[
    {
      "empty_slots": 13,
      "extra": {
        "number": 4,
        "reviews": 340,
        "score": 3.9,
        "status": "online",
        "uid": "253"
      },
      "free_bikes": 7,
      "id": "9f705b5e090de99e976f4ac6c6911571",
      "name": "Porta Susa 1",
      "timestamp": "2021-12-10T14:54:39.185000Z",
      "location": {
        "type": "Point",
        "coordinates": [
          45.072882,
          7.667951
        ]
      }
    },
    {
      "empty_slots": 15,
      "extra": {
        "number": 5,
        "reviews": 221,
        "score": 3.4,
        "status": "online",
        "uid": "254"
      },
      "free_bikes": 0,
      "id": "53a856e2cd42e9bfbc022f6cdc6d2e1c",
      "name": "Cernaia",
      "timestamp": "2021-12-10T14:54:39.185000Z",
      "location": {
        "type": "Point",
        "coordinates": [
          45.072642,
          7.670337
        ]
      }
    },
    {
      "empty_slots": 9,
      "extra": {
        "number": 9,
        "reviews": 333,
        "score": 3.9,
        "status": "online",
        "uid": "258"
      },
      "free_bikes": 6,
      "id": "8e8de5efc9bbc722629d8956c897bdea",
      "name": "Consolata",
      "timestamp": "2021-12-10T14:54:39.185000Z",
      "location": {
        "type": "Point",
        "coordinates": [
          45.075794,
          7.677993
        ]
      }
    },
    {
      "empty_slots": 7,
      "extra": {
        "number": 12,
        "reviews": 297,
        "score": 4,
        "status": "online",
        "uid": "261"
      },
      "free_bikes": 6,
      "id": "daa3408cf489d582d20393c4394e2444",
      "name": "Corte d`Appello",
      "timestamp": "2021-12-10T14:54:39.185000Z",
      "location": {
        "type": "Point",
        "coordinates": [
          45.074394,
          7.678886
        ]
      }
    },
    {
      "empty_slots": 5,
      "extra": {
        "number": 17,
        "reviews": 317,
        "score": 4,
        "status": "online",
        "uid": "265"
      },
      "free_bikes": 9,
      "id": "7bab9c15c77104412b391ebe188346af",
      "name": "Porta Palatina",
      "timestamp": "2021-12-10T14:54:39.185000Z",
      "location": {
        "type": "Point",
        "coordinates": [
          45.07396293061647,
          7.684050574676576
        ]
      }
    },
    {
      "empty_slots": 15,
      "extra": {
        "number": 22,
        "reviews": 232,
        "score": 3.9,
        "status": "online",
        "uid": "270"
      },
      "free_bikes": 11,
      "id": "d7f5ecd55ceed0185b735902d69c98ec",
      "name": "Porta Nuova 1",
      "timestamp": "2021-12-10T14:54:39.185000Z",
      "location": {
        "type": "Point",
        "coordinates": [
          45.063029,
          7.678823
        ]
      }
    },
    {
      "empty_slots": 8,
      "extra": {
        "number": 43,
        "reviews": 331,
        "score": 4.2,
        "status": "online",
        "uid": "292"
      },
      "free_bikes": 9,
      "id": "29429131a6fe32729fb1e4dc5e582c70",
      "name": "Giolitti 1",
      "timestamp": "2021-12-10T14:54:39.185000Z",
      "location": {
        "type": "Point",
        "coordinates": [
          45.066514,
          7.683693
        ]
      }
    },
    {
      "empty_slots": 10,
      "extra": {
        "number": 57,
        "reviews": 222,
        "score": 4,
        "status": "online",
        "uid": "307"
      },
      "free_bikes": 4,
      "id": "bfa12cb895ac0d7392dde60b6b433cdf",
      "name": "San Francesco da Paola",
      "timestamp": "2021-12-10T14:54:39.185000Z",
      "location": {
        "type": "Point",
        "coordinates": [
          45.068617,
          7.689097
        ]
      }
    },
    {
      "empty_slots": 4,
      "extra": {
        "number": 58,
        "reviews": 186,
        "score": 3.9,
        "status": "online",
        "uid": "308"
      },
      "free_bikes": 9,
      "id": "fa542128c27969894f2d17b1e2e20217",
      "name": "Carlo Alberto",
      "timestamp": "2021-12-10T14:54:39.185000Z",
      "location": {
        "type": "Point",
        "coordinates": [
          45.06806,
          7.686688
        ]
      }
    },
    {
      "empty_slots": 0,
      "extra": {
        "number": 1,
        "reviews": 72,
        "score": 4,
        "status": "offline",
        "uid": "537"
      },
      "free_bikes": 0,
      "id": "f01c3eb11d001cdeb048c5153d2312ae",
      "name": "01. Gerbido",
      "timestamp": "2021-12-10T14:54:39.214000Z",
      "location": {
        "type": "Point",
        "coordinates": [
          45.04440354326403,
          7.617623805999756
        ]
      }
    },
    {
      "empty_slots": 0,
      "extra": {
        "number": 2,
        "reviews": 26,
        "score": 3.4,
        "status": "offline",
        "uid": "538"
      },
      "free_bikes": 0,
      "id": "bc312c77398b36b68dcc11a936231be8",
      "name": "02. Fabbrichetta",
      "timestamp": "2021-12-10T14:54:39.214000Z",
      "location": {
        "type": "Point",
        "coordinates": [
          45.067519551794994,
          7.563056945800781
        ]
      }
    },
    {
      "empty_slots": 0,
      "extra": {
        "number": 3,
        "reviews": 28,
        "score": 3.9,
        "status": "offline",
        "uid": "539"
      },
      "free_bikes": 0,
      "id": "d5b824f8f0b24055820952cae13d8eb6",
      "name": "03. Borgo",
      "timestamp": "2021-12-10T14:54:39.214000Z",
      "location": {
        "type": "Point",
        "coordinates": [
          45.056364402185814,
          7.580995559692383
        ]
      }
    },
    {
      "empty_slots": 0,
      "extra": {
        "number": 4,
        "reviews": 112,
        "score": 4.2,
        "status": "offline",
        "uid": "540"
      },
      "free_bikes": 0,
      "id": "efb9906681ca572faa6c528c55856187",
      "name": "04. Villa Claretta",
      "timestamp": "2021-12-10T14:54:39.214000Z",
      "location": {
        "type": "Point",
        "coordinates": [
          45.06171490180712,
          7.581188678741455
        ]
      }
    },
    {
      "empty_slots": 0,
      "extra": {
        "number": 5,
        "reviews": 44,
        "score": 1.2,
        "status": "offline",
        "uid": "541"
      },
      "free_bikes": 0,
      "id": "6ada4564cfb797b8829b59ec7742e2ed",
      "name": "05. Universita`",
      "timestamp": "2021-12-10T14:54:39.215000Z",
      "location": {
        "type": "Point",
        "coordinates": [
          45.06479159126726,
          7.588076591491699
        ]
      }
    },
    {
      "empty_slots": 1,
      "extra": {
        "number": 6,
        "reviews": 32,
        "score": 3.2,
        "status": "offline",
        "uid": "542"
      },
      "free_bikes": 0,
      "id": "d38e65d832c8d32a5e9d6547144e35f5",
      "name": "06. Le Serre",
      "timestamp": "2021-12-10T14:54:39.215000Z",
      "location": {
        "type": "Point",
        "coordinates": [
          45.063139596328625,
          7.5768327713012695
        ]
      }
    },
    {
      "empty_slots": 0,
      "extra": {
        "number": 7,
        "reviews": 23,
        "score": 2.5,
        "status": "offline",
        "uid": "543"
      },
      "free_bikes": 0,
      "id": "ffd596ecd472bfa10fd38a9685f17c8c",
      "name": "07. Stazione Ferroviaria Paradiso",
      "timestamp": "2021-12-10T14:54:39.215000Z",
      "location": {
        "type": "Point",
        "coordinates": [
          45.06829245027643,
          7.599577903747559
        ]
      }
    },
    {
      "empty_slots": 0,
      "extra": {
        "number": 8,
        "reviews": 4,
        "score": 3.5,
        "status": "offline",
        "uid": "1186"
      },
      "free_bikes": 0,
      "id": "22743c60546a6b5713094662d6940f4e",
      "name": "08. Lupo",
      "timestamp": "2021-12-10T14:54:39.215000Z",
      "location": {
        "type": "Point",
        "coordinates": [
          45.06566411992803,
          7.579057797622681
        ]
      }
    },
    {
      "empty_slots": 0,
      "extra": {
        "number": 1,
        "reviews": 28,
        "score": 3,
        "status": "offline",
        "uid": "529"
      },
      "free_bikes": 0,
      "id": "8c12fcd7311c98e9a948af38caa4d051",
      "name": "01. Certosa / P.le Avis",
      "timestamp": "2021-12-10T14:54:39.244000Z",
      "location": {
        "type": "Point",
        "coordinates": [
          45.084126990755045,
          7.575631141662598
        ]
      }
    },
    {
      "empty_slots": 0,
      "extra": {
        "number": 2,
        "reviews": 11,
        "score": 1,
        "status": "offline",
        "uid": "530"
      },
      "free_bikes": 0,
      "id": "26a6631b10b148b217942bd7d50e0e13",
      "name": "02. Dalla Chiesa / Pastrengo",
      "timestamp": "2021-12-10T14:54:39.244000Z",
      "location": {
        "type": "Point",
        "coordinates": [
          45.07764217839048,
          7.58082389831543
        ]
      }
    },
    {
      "empty_slots": 0,
      "extra": {
        "number": 3,
        "reviews": 17,
        "score": 3.7,
        "status": "offline",
        "uid": "531"
      },
      "free_bikes": 0,
      "id": "d1bc8033c40ee5264cce8f47d5187fba",
      "name": "03. Leumann",
      "timestamp": "2021-12-10T14:54:39.244000Z",
      "location": {
        "type": "Point",
        "coordinates": [
          45.072338630573036,
          7.561769485473633
        ]
      }
    },
    {
      "empty_slots": 0,
      "extra": {
        "number": 4,
        "reviews": 87,
        "score": 3,
        "status": "offline",
        "uid": "532"
      },
      "free_bikes": 0,
      "id": "c50124e7cca913343a6cbeba5e4b6cdb",
      "name": "04. Metro Paradiso",
      "timestamp": "2021-12-10T14:54:39.244000Z",
      "location": {
        "type": "Point",
        "coordinates": [
          45.07373275368509,
          7.601809501647949
        ]
      }
    },
    {
      "empty_slots": 0,
      "extra": {
        "number": 5,
        "reviews": 11,
        "score": 4,
        "status": "offline",
        "uid": "533"
      },
      "free_bikes": 0,
      "id": "8fa4807880ed26b205517a071dca0c21",
      "name": "05. Savonera",
      "timestamp": "2021-12-10T14:54:39.244000Z",
      "location": {
        "type": "Point",
        "coordinates": [
          45.115722339702245,
          7.613739967346191
        ]
      }
    },
    {
      "empty_slots": 0,
      "extra": {
        "number": 6,
        "reviews": 76,
        "score": 1.5,
        "status": "offline",
        "uid": "534"
      },
      "free_bikes": 0,
      "id": "8ec03e61853d06f562d2d14b8a56a4a0",
      "name": "06. Fermi",
      "timestamp": "2021-12-10T14:54:39.244000Z",
      "location": {
        "type": "Point",
        "coordinates": [
          45.075960249379555,
          7.591949701309205
        ]
      }
    },
    {
      "empty_slots": 0,
      "extra": {
        "number": 7,
        "reviews": 15,
        "score": 2.8,
        "status": "offline",
        "uid": "535"
      },
      "free_bikes": 0,
      "id": "f1d7621c4f2b581dc95871181eaddf7f",
      "name": "07. Stazione F.S.",
      "timestamp": "2021-12-10T14:54:39.244000Z",
      "location": {
        "type": "Point",
        "coordinates": [
          45.07894526052452,
          7.5743865966796875
        ]
      }
    },
    {
      "empty_slots": 0,
      "extra": {
        "number": 8,
        "reviews": 34,
        "score": 1.4,
        "status": "offline",
        "uid": "536"
      },
      "free_bikes": 0,
      "id": "f721695d488b071d3df077eb4a9d50bf",
      "name": "08. Gramsci",
      "timestamp": "2021-12-10T14:54:39.244000Z",
      "location": {
        "type": "Point",
        "coordinates": [
          45.07270231814184,
          7.58030891418457
        ]
      }
    },
    {
      "empty_slots": 0,
      "extra": {
        "number": 9,
        "reviews": 3,
        "score": 2.4,
        "status": "offline",
        "uid": "1184"
      },
      "free_bikes": 0,
      "id": "89133cb9d5cfa00e1733665ec0ec7dbc",
      "name": "09. Municipio",
      "timestamp": "2021-12-10T14:54:39.244000Z",
      "location": {
        "type": "Point",
        "coordinates": [
          45.07746928803631,
          7.569552136909465
        ]
      }
    },
    {
      "empty_slots": 1,
      "extra": {
        "number": 1,
        "reviews": 33,
        "score": 3.9,
        "status": "online",
        "uid": "583"
      },
      "free_bikes": 2,
      "id": "e8242fb035991ef3d83e93fb3b6fa97b",
      "name": "01. Concordia",
      "timestamp": "2021-12-10T14:54:39.273000Z",
      "location": {
        "type": "Point",
        "coordinates": [
          45.116903418249365,
          7.62300968170166
        ]
      }
    },
    {
      "empty_slots": 2,
      "extra": {
        "number": 2,
        "reviews": 14,
        "score": 4.3,
        "status": "online",
        "uid": "584"
      },
      "free_bikes": 2,
      "id": "bc2f3dac64e76a022c2869659614a6f5",
      "name": "02. Pettiti",
      "timestamp": "2021-12-10T14:54:39.273000Z",
      "location": {
        "type": "Point",
        "coordinates": [
          45.129893668868284,
          7.631292343139648
        ]
      }
    },
    {
      "empty_slots": 0,
      "extra": {
        "number": 3,
        "reviews": 15,
        "score": 3.9,
        "status": "online",
        "uid": "585"
      },
      "free_bikes": 0,
      "id": "aeb1bf0a60459898301e9f798dbc17b7",
      "name": "03. C. Commerciale I Portici",
      "timestamp": "2021-12-10T14:54:39.273000Z",
      "location": {
        "type": "Point",
        "coordinates": [
          45.12418619577999,
          7.632043361663818
        ]
      }
    },
    {
      "empty_slots": 0,
      "extra": {
        "number": 5,
        "reviews": 13,
        "score": 4.2,
        "status": "offline",
        "uid": "587"
      },
      "free_bikes": 5,
      "id": "0c7ddac244be98e27b3249521685e480",
      "name": "05. Corso Garibaldi",
      "timestamp": "2021-12-10T14:54:39.273000Z",
      "location": {
        "type": "Point",
        "coordinates": [
          45.127804527473224,
          7.635798454284668
        ]
      }
    },
    {
      "empty_slots": 0,
      "extra": {
        "number": 7,
        "reviews": 20,
        "score": 3,
        "status": "offline",
        "uid": "589"
      },
      "free_bikes": 0,
      "id": "a4792b55af4c2ed4730f24207b924ead",
      "name": "07. Buozzi",
      "timestamp": "2021-12-10T14:54:39.273000Z",
      "location": {
        "type": "Point",
        "coordinates": [
          45.125836425730945,
          7.642192840576172
        ]
      }
    },
    {
      "empty_slots": 2,
      "extra": {
        "number": 8,
        "reviews": 10,
        "score": 4.1,
        "status": "online",
        "uid": "590"
      },
      "free_bikes": 1,
      "id": "99d05089c79ad0acfd5d3acecaf2cd83",
      "name": "08. San Marchese",
      "timestamp": "2021-12-10T14:54:39.273000Z",
      "location": {
        "type": "Point",
        "coordinates": [
          45.12489776867726,
          7.6529645919799805
        ]
      }
    },
    {
      "empty_slots": 2,
      "extra": {
        "number": 10,
        "reviews": 40,
        "score": 4.5,
        "status": "online",
        "uid": "592"
      },
      "free_bikes": 3,
      "id": "f16cba9c6dc917e833eab7bf3e0168b7",
      "name": "10. Gallo Praile",
      "timestamp": "2021-12-10T14:54:39.273000Z",
      "location": {
        "type": "Point",
        "coordinates": [
          45.114828943536864,
          7.641313076019287
        ]
      }
    },
    {
      "empty_slots": 0,
      "extra": {
        "number": 2,
        "reviews": 11,
        "score": 3,
        "status": "offline",
        "uid": "593"
      },
      "free_bikes": 0,
      "id": "d6806ba5784a0d60f24f380a9b09a1cb",
      "name": "02. Berlinguer",
      "timestamp": "2021-12-10T14:54:39.302000Z",
      "location": {
        "type": "Point",
        "coordinates": [
          45.099654215224064,
          7.531235218048096
        ]
      }
    },
    {
      "empty_slots": 0,
      "extra": {
        "number": 1,
        "reviews": 16,
        "score": 2.1,
        "status": "offline",
        "uid": "594"
      },
      "free_bikes": 0,
      "id": "0df8838da4cf2ffe0eaf28629b902dd7",
      "name": "01. Municipio",
      "timestamp": "2021-12-10T14:54:39.302000Z",
      "location": {
        "type": "Point",
        "coordinates": [
          45.094383006473215,
          7.524325847625732
        ]
      }
    },
    {
      "empty_slots": 0,
      "extra": {
        "number": 1,
        "reviews": 20,
        "score": 2.8,
        "status": "offline",
        "uid": "595"
      },
      "free_bikes": 0,
      "id": "8bca5f91b24693d216f576525e7c1647",
      "name": "01. Largo Oropa",
      "timestamp": "2021-12-10T14:54:39.331000Z",
      "location": {
        "type": "Point",
        "coordinates": [
          45.136100086850355,
          7.576360702514648
        ]
      }
    },
    {
      "empty_slots": 8,
      "extra": {
        "number": 2,
        "reviews": 1,
        "score": 1,
        "status": "online",
        "uid": "1563"
      },
      "free_bikes": 2,
      "id": "d55bde750a05150e2bd91d020a5a743e",
      "name": "02. BIKE POINT Mandria",
      "timestamp": "2021-12-10T14:54:39.331000Z",
      "location": {
        "type": "Point",
        "coordinates": [
          45.134345,
          7.576462
        ]
      }
    },
    {
      "empty_slots": 0,
      "extra": {
        "number": 9,
        "reviews": 29,
        "score": 4.7,
        "status": "offline",
        "uid": "591"
      },
      "free_bikes": 0,
      "id": "dff9f20a6eb38d6a666eccb3cff13fd8",
      "name": "09. Rigola",
      "timestamp": "2021-12-10T14:54:39.273000Z",
      "location": {
        "type": "Point",
        "coordinates": [
          45.120052841530544,
          7.6485657691955575
        ]
      }
    },
    {
      "empty_slots": 19,
      "extra": {
        "number": 74,
        "reviews": 273,
        "score": 4.1,
        "status": "online",
        "uid": "324"
      },
      "free_bikes": 0,
      "id": "5028f6c6a2c3ab5c46807a66e821e802",
      "name": "SantÂ´Anselmo",
      "timestamp": "2021-12-10T14:54:39.185000Z",
      "location": {
        "type": "Point",
        "coordinates": [
          45.059332,
          7.681139
        ]
      }
    },
    {
      "empty_slots": 12,
      "extra": {
        "number": 1,
        "reviews": 1245,
        "score": 3.4,
        "status": "online",
        "uid": "250"
      },
      "free_bikes": 2,
      "id": "11c6ccc569e1b91fe1e9d238f97f4a32",
      "name": "Paravia",
      "timestamp": "2021-12-10T14:54:39.185000Z",
      "location": {
        "type": "Point",
        "coordinates": [
          45.077589,
          7.670385
        ]
      }
    },
    {
      "empty_slots": 10,
      "extra": {
        "number": 195,
        "reviews": 24,
        "score": 3.5,
        "status": "online",
        "uid": "528"
      },
      "free_bikes": 0,
      "id": "47a68b00853f1e0dad4edd46e31ad835",
      "name": "Orbassano 2",
      "timestamp": "2021-12-10T14:54:39.185000Z",
      "location": {
        "type": "Point",
        "coordinates": [
          45.0309787,
          7.6118612
        ]
      }
    },
    {
      "empty_slots": 0,
      "extra": {
        "number": 187,
        "reviews": 4,
        "score": 3.8,
        "status": "online",
        "uid": "1285"
      },
      "free_bikes": 0,
      "id": "4e79bba70c39bd21e64bc4063c5ab09a",
      "name": "Giachino",
      "timestamp": "2021-12-10T14:54:39.185000Z",
      "location": {
        "type": "Point",
        "coordinates": [
          45.096708600000014,
          7.671545299999934
        ]
      }
    },
    {
      "empty_slots": 0,
      "extra": {
        "number": 189,
        "reviews": 219,
        "score": 4.4,
        "status": "offline",
        "uid": "900"
      },
      "free_bikes": 0,
      "id": "78bf03a623351ed777d06aa163c2a7fe",
      "name": "Sassi",
      "timestamp": "2021-12-10T14:54:39.185000Z",
      "location": {
        "type": "Point",
        "coordinates": [
          45.08042420000004,
          7.730760400000008
        ]
      }
    },
    {
      "empty_slots": 0,
      "extra": {
        "number": 190,
        "reviews": 1,
        "score": 1,
        "status": "offline",
        "uid": "1287"
      },
      "free_bikes": 0,
      "id": "e423718a4a3950808bb7abde20469b8d",
      "name": "Palermo",
      "timestamp": "2021-12-10T14:54:39.185000Z",
      "location": {
        "type": "Point",
        "coordinates": [
          45.0894413,
          7.693284700000049
        ]
      }
    },
    {
      "empty_slots": 12,
      "extra": {
        "number": 76,
        "reviews": 785,
        "score": 4,
        "status": "online",
        "uid": "326"
      },
      "free_bikes": 3,
      "id": "808f2aa41bc2dc947db6bfe6585fc133",
      "name": "Belfiore",
      "timestamp": "2021-12-10T14:54:39.185000Z",
      "location": {
        "type": "Point",
        "coordinates": [
          45.054267,
          7.678409
        ]
      }
    },
    {
      "empty_slots": 14,
      "extra": {
        "number": 6,
        "reviews": 217,
        "score": 3.5,
        "status": "online",
        "uid": "255"
      },
      "free_bikes": 1,
      "id": "2bf7fcbcdd03427d49d057a3f4d4b378",
      "name": "Valdocco 2",
      "timestamp": "2021-12-10T14:54:39.185000Z",
      "location": {
        "type": "Point",
        "coordinates": [
          45.075438,
          7.673785
        ]
      }
    },
    {
      "empty_slots": 8,
      "extra": {
        "number": 8,
        "reviews": 362,
        "score": 3.5,
        "status": "online",
        "uid": "257"
      },
      "free_bikes": 7,
      "id": "62e1229a487243fb01fa03af26e69b01",
      "name": "Valdocco",
      "timestamp": "2021-12-10T14:54:39.185000Z",
      "location": {
        "type": "Point",
        "coordinates": [
          45.078044,
          7.675665
        ]
      }
    },
    {
      "empty_slots": 0,
      "extra": {
        "number": 23,
        "reviews": 1290,
        "score": 4.4,
        "status": "maintenance",
        "uid": "271"
      },
      "free_bikes": 0,
      "id": "74d171b578136bcb9a95bc25ebe654ee",
      "name": "Bava",
      "timestamp": "2021-12-10T14:54:39.185000Z",
      "location": {
        "type": "Point",
        "coordinates": [
          45.0691,
          7.701921
        ]
      }
    },
    {
      "empty_slots": 0,
      "extra": {
        "number": 46,
        "reviews": 823,
        "score": 4.2,
        "status": "maintenance",
        "uid": "295"
      },
      "free_bikes": 0,
      "id": "8d0923df4f487be62b1d41b9229714b1",
      "name": "Lione",
      "timestamp": "2021-12-10T14:54:39.185000Z",
      "location": {
        "type": "Point",
        "coordinates": [
          45.060042,
          7.65628
        ]
      }
    },
    {
      "empty_slots": 0,
      "extra": {
        "number": 50,
        "reviews": 858,
        "score": 4.5,
        "status": "maintenance",
        "uid": "299"
      },
      "free_bikes": 0,
      "id": "75f7e1a9926635ef44f5e6a80bfdc09f",
      "name": "Regina Margherita 4",
      "timestamp": "2021-12-10T14:54:39.185000Z",
      "location": {
        "type": "Point",
        "coordinates": [
          45.074594,
          7.690499
        ]
      }
    },
    {
      "empty_slots": 7,
      "extra": {
        "number": 102,
        "reviews": 633,
        "score": 4,
        "status": "online",
        "uid": "352"
      },
      "free_bikes": 8,
      "id": "abb21913f56f0169dcd6c8102d6b2337",
      "name": "Borromini",
      "timestamp": "2021-12-10T14:54:39.185000Z",
      "location": {
        "type": "Point",
        "coordinates": [
          45.06714,
          7.708391
        ]
      }
    },
    {
      "empty_slots": 0,
      "extra": {
        "number": 56,
        "reviews": 142,
        "score": 3.9,
        "status": "offline",
        "uid": "305"
      },
      "free_bikes": 0,
      "id": "f416d5b5054eeb6ba66b5d3cfa1a6576",
      "name": "Universita`3",
      "timestamp": "2021-12-10T14:54:39.185000Z",
      "location": {
        "type": "Point",
        "coordinates": [
          45.067696,
          7.691789
        ]
      }
    },
    {
      "empty_slots": 0,
      "extra": {
        "number": 64,
        "reviews": 174,
        "score": 3.9,
        "status": "maintenance",
        "uid": "314"
      },
      "free_bikes": 0,
      "id": "4f7e6afbdf3affdc419a293342ebb1ab",
      "name": "Vittorio Emanuele II 5",
      "timestamp": "2021-12-10T14:54:39.185000Z",
      "location": {
        "type": "Point",
        "coordinates": [
          45.060394,
          7.685138
        ]
      }
    },
    {
      "empty_slots": 0,
      "extra": {
        "number": 68,
        "reviews": 272,
        "score": 4.3,
        "status": "offline",
        "uid": "318"
      },
      "free_bikes": 0,
      "id": "03bc5daeb184427e46b2f9a75c26175f",
      "name": "Vittorio Veneto 2",
      "timestamp": "2021-12-10T14:54:39.185000Z",
      "location": {
        "type": "Point",
        "coordinates": [
          45.065162,
          7.693616
        ]
      }
    },
    {
      "empty_slots": 10,
      "extra": {
        "number": 85,
        "reviews": 310,
        "score": 4,
        "status": "online",
        "uid": "335"
      },
      "free_bikes": 5,
      "id": "e83007cd520a046bfa032cfe75d5889b",
      "name": "Politecnico 3",
      "timestamp": "2021-12-10T14:54:39.185000Z",
      "location": {
        "type": "Point",
        "coordinates": [
          45.060759,
          7.661325
        ]
      }
    },
    {
      "empty_slots": 0,
      "extra": {
        "number": 86,
        "reviews": 331,
        "score": 2.7,
        "status": "offline",
        "uid": "336"
      },
      "free_bikes": 0,
      "id": "d5d84b0de5b967198d467baeb5b02c65",
      "name": "Politecnico 4",
      "timestamp": "2021-12-10T14:54:39.185000Z",
      "location": {
        "type": "Point",
        "coordinates": [
          45.064101,
          7.659946
        ]
      }
    },
    {
      "empty_slots": 21,
      "extra": {
        "number": 87,
        "reviews": 364,
        "score": 4.1,
        "status": "online",
        "uid": "337"
      },
      "free_bikes": 3,
      "id": "8d905cb233d02886d288c0185f870832",
      "name": "Tribunale",
      "timestamp": "2021-12-10T14:54:39.185000Z",
      "location": {
        "type": "Point",
        "coordinates": [
          45.07084597193492,
          7.6612794399261475
        ]
      }
    },
    {
      "empty_slots": 11,
      "extra": {
        "number": 108,
        "reviews": 264,
        "score": 4.1,
        "status": "online",
        "uid": "358"
      },
      "free_bikes": 9,
      "id": "fa9a021c19bb407a271ea6a9bb34bd39",
      "name": "Politecnico 1",
      "timestamp": "2021-12-10T14:54:39.185000Z",
      "location": {
        "type": "Point",
        "coordinates": [
          45.062387,
          7.662494
        ]
      }
    },
    {
      "empty_slots": 9,
      "extra": {
        "number": 88,
        "reviews": 1906,
        "score": 4,
        "status": "online",
        "uid": "338"
      },
      "free_bikes": 6,
      "id": "7aacdceecb6143183185e9d182821fe3",
      "name": "Principi d`Acaja 1",
      "timestamp": "2021-12-10T14:54:39.185000Z",
      "location": {
        "type": "Point",
        "coordinates": [
          45.073304,
          7.662401
        ]
      }
    },
    {
      "empty_slots": 13,
      "extra": {
        "number": 89,
        "reviews": 654,
        "score": 4.1,
        "status": "online",
        "uid": "339"
      },
      "free_bikes": 2,
      "id": "d21b21a3780ccd3198e2b72afb3b0a82",
      "name": "Principi d`Acaja 2",
      "timestamp": "2021-12-10T14:54:39.185000Z",
      "location": {
        "type": "Point",
        "coordinates": [
          45.075859,
          7.664055
        ]
      }
    },
    {
      "empty_slots": 1,
      "extra": {
        "number": 91,
        "reviews": 558,
        "score": 3.7,
        "status": "online",
        "uid": "341"
      },
      "free_bikes": 9,
      "id": "ae8eae4419e7c094b6365228f6eac681",
      "name": "Adriano",
      "timestamp": "2021-12-10T14:54:39.185000Z",
      "location": {
        "type": "Point",
        "coordinates": [
          45.070719,
          7.655975
        ]
      }
    },
    {
      "empty_slots": 11,
      "extra": {
        "number": 47,
        "reviews": 213,
        "score": 4.2,
        "status": "online",
        "uid": "296"
      },
      "free_bikes": 5,
      "id": "6f7549bea746384a7a9868d1f8785f1c",
      "name": "Castello 1",
      "timestamp": "2021-12-10T14:54:39.185000Z",
      "location": {
        "type": "Point",
        "coordinates": [
          45.071445,
          7.68806
        ]
      }
    },
    {
      "empty_slots": 4,
      "extra": {
        "number": 4,
        "reviews": 24,
        "score": 4.2,
        "status": "online",
        "uid": "586"
      },
      "free_bikes": 3,
      "id": "e6642b43e6d4732fcd596eef9dc4c931",
      "name": "04. Reggia",
      "timestamp": "2021-12-10T14:54:39.273000Z",
      "location": {
        "type": "Point",
        "coordinates": [
          45.13563084470412,
          7.625724077224732
        ]
      }
    },
    {
      "empty_slots": 9,
      "extra": {
        "number": 6,
        "reviews": 37,
        "score": 4.2,
        "status": "online",
        "uid": "588"
      },
      "free_bikes": 4,
      "id": "c152199d3e16721e1f430de89ffff5eb",
      "name": "06. Municipio",
      "timestamp": "2021-12-10T14:54:39.273000Z",
      "location": {
        "type": "Point",
        "coordinates": [
          45.13300074668823,
          7.632789015769959
        ]
      }
    },
    {
      "empty_slots": 10,
      "extra": {
        "number": 199,
        "reviews": 4,
        "score": 3.6,
        "status": "online",
        "uid": "1667"
      },
      "free_bikes": 5,
      "id": "055bfeb73e15dd3eb17558c483954eff",
      "name": "Palermo 2",
      "timestamp": "2021-12-10T14:54:39.185000Z",
      "location": {
        "type": "Point",
        "coordinates": [
          45.0787395,
          7.6928751
        ]
      }
    }
  ]